{
  "0":{
    "name":"Alsenpark",
    "walk_dist":"500",
    "lat":53.5655839191,
    "long":9.9480983759
  },
  "1":{
    "name":"Alsterpark Klein Borstel",
    "walk_dist":"1000",
    "lat":53.6315899415,
    "long":10.0368275987
  },
  "2":{
    "name":"Alstervorland",
    "walk_dist":"1000",
    "lat":53.5731830903,
    "long":10.0008959164
  },
  "3":{
    "name":"Alter Botanischer Garten",
    "walk_dist":"500",
    "lat":53.5593099186,
    "long":9.986636814
  },
  "4":{
    "name":"Alter Elbpark",
    "walk_dist":"500",
    "lat":53.548830947,
    "long":9.9713162493
  },
  "5":{
    "name":"Alter Friedhof Harburg",
    "walk_dist":"500",
    "lat":53.4557433552,
    "long":9.9803154292
  },
  "6":{
    "name":"Alter Friedhof Lohbruegge",
    "walk_dist":"500",
    "lat":53.4980216073,
    "long":10.2000794052
  },
  "7":{
    "name":"Altonaer Balkon",
    "walk_dist":"500",
    "lat":53.5453816304,
    "long":9.9373682962
  },
  "8":{
    "name":"Altonaer Volkspark",
    "walk_dist":"1500",
    "lat":53.5805694691,
    "long":9.8997444063
  },
  "9":{
    "name":"Amsinckpark",
    "walk_dist":"500",
    "lat":53.6013550861,
    "long":9.9431452298
  },
  "10":{
    "name":"Appelhoffweiher",
    "walk_dist":"500",
    "lat":53.6051977601,
    "long":10.060518958
  },
  "11":{
    "name":"August-Luetgens-Park",
    "walk_dist":"500",
    "lat":53.5568053903,
    "long":9.9479359178
  },
  "12":{
    "name":"Ballin Park",
    "walk_dist":"500",
    "lat":53.5210762579,
    "long":10.0168299023
  },
  "13":{
    "name":"Baurs Park",
    "walk_dist":"500",
    "lat":53.5563858536,
    "long":9.8154351701
  },
  "14":{
    "name":"Bergedorfer Rathauspark",
    "walk_dist":"500",
    "lat":53.4859523564,
    "long":10.2227598374
  },
  "15":{
    "name":"Bergedorfer Schlossgarten",
    "walk_dist":"500",
    "lat":53.489508907,
    "long":10.2134461376
  },
  "16":{
    "name":"Berner Gutspark",
    "walk_dist":"500",
    "lat":53.6270270205,
    "long":10.134597027
  },
  "17":{
    "name":"Biedermannplatz",
    "walk_dist":"500",
    "lat":53.5807014452,
    "long":10.0333616863
  },
  "18":{
    "name":"Bismarckstein",
    "walk_dist":"500",
    "lat":53.5614074376,
    "long":9.7948126186
  },
  "19":{
    "name":"Blohms Park",
    "walk_dist":"500",
    "lat":53.5522046362,
    "long":10.0750476564
  },
  "20":{
    "name":"Boeverstpark",
    "walk_dist":"500",
    "lat":53.59510829,
    "long":9.8721881789
  },
  "21":{
    "name":"Bolivarpark",
    "walk_dist":"500",
    "lat":53.5804742719,
    "long":9.9895151499
  },
  "22":{
    "name":"Bonnepark",
    "walk_dist":"500",
    "lat":53.5673850876,
    "long":9.9019423767
  },
  "23":{
    "name":"Bornpark",
    "walk_dist":"1000",
    "lat":53.5935336294,
    "long":9.8445552066
  },
  "24":{
    "name":"Botanischer Sondergarten",
    "walk_dist":"500",
    "lat":53.5814519218,
    "long":10.0986514575
  },
  "25":{
    "name":"City-Nord-Park",
    "walk_dist":"500",
    "lat":53.6036728791,
    "long":10.0219432092
  },
  "26":{
    "name":"Donners Park",
    "walk_dist":"500",
    "lat":53.5452243799,
    "long":9.9241083822
  },
  "27":{
    "name":"Drachenthal",
    "walk_dist":"500",
    "lat":53.4787580387,
    "long":9.8766156554
  },
  "28":{
    "name":"Eichenpark",
    "walk_dist":"500",
    "lat":53.5795032132,
    "long":9.9970630398
  },
  "29":{
    "name":"Eichtalpark",
    "walk_dist":"500",
    "lat":53.579350283,
    "long":10.0906354381
  },
  "30":{
    "name":"Eimsbuetteler Park",
    "walk_dist":"500",
    "lat":53.5779237408,
    "long":9.959622256
  },
  "31":{
    "name":"Elbpark Entenwerder",
    "walk_dist":"1000",
    "lat":53.5314191699,
    "long":10.0347176234
  },
  "32":{
    "name":"Elbpark Falkensteiner Ufer",
    "walk_dist":"500",
    "lat":53.5609524443,
    "long":9.7840234817
  },
  "33":{
    "name":"Emil-Wendt-Park",
    "walk_dist":"500",
    "lat":53.5556516613,
    "long":9.9531237589
  },
  "34":{
    "name":"Eppendorfer Park",
    "walk_dist":"500",
    "lat":53.5893225148,
    "long":9.9790844472
  },
  "35":{
    "name":"Fischers Park",
    "walk_dist":"500",
    "lat":53.5473540881,
    "long":9.9209118504
  },
  "36":{
    "name":"Gebrueder-Cohen-Park",
    "walk_dist":"500",
    "lat":53.4696625737,
    "long":9.9859393728
  },
  "37":{
    "name":"Gorch-Fock-Park",
    "walk_dist":"500",
    "lat":53.539815909,
    "long":9.8696937171
  },
  "38":{
    "name":"Gosslers Park",
    "walk_dist":"500",
    "lat":53.5653235492,
    "long":9.8089070209
  },
  "39":{
    "name":"Greifenbergpark",
    "walk_dist":"500",
    "lat":53.6166814193,
    "long":10.1446486879
  },
  "40":{
    "name":"Grosse Moorweide",
    "walk_dist":"500",
    "lat":53.5626543697,
    "long":9.9921887112
  },
  "41":{
    "name":"Grosse Wallanlagen",
    "walk_dist":"1000",
    "lat":53.552964753,
    "long":9.9743002049
  },
  "42":{
    "name":"Grothpark",
    "walk_dist":"500",
    "lat":53.552716177,
    "long":9.896653416
  },
  "43":{
    "name":"Gruenanlage am Sandberg",
    "walk_dist":"500",
    "lat":53.5450372273,
    "long":9.9457858204
  },
  "44":{
    "name":"Gruenanlage am Willersweg",
    "walk_dist":"500",
    "lat":53.6450347688,
    "long":10.0181606749
  },
  "45":{
    "name":"Gruenes Zentrum Lohbruegge",
    "walk_dist":"1000",
    "lat":53.5077859696,
    "long":10.2052840013
  },
  "46":{
    "name":"Gruenzug Goehlbachtal",
    "walk_dist":"500",
    "lat":53.4540945125,
    "long":9.966872201
  },
  "47":{
    "name":"Gruenzug Langenfort",
    "walk_dist":"500",
    "lat":53.5997057479,
    "long":10.0516060858
  },
  "48":{
    "name":"Gustav-Mahler-Park",
    "walk_dist":"500",
    "lat":53.5587122547,
    "long":9.9912810555
  },
  "49":{
    "name":"Hammer Park",
    "walk_dist":"1000",
    "lat":53.5585947943,
    "long":10.05816754
  },
  "50":{
    "name":"Hans-Christian-Andersen-Park",
    "walk_dist":"500",
    "lat":53.5745097029,
    "long":9.8537689442
  },
  "51":{
    "name":"Harburger Stadtpark",
    "walk_dist":"1000",
    "lat":53.4449133458,
    "long":9.9748887561
  },
  "52":{
    "name":"Hayns Park",
    "walk_dist":"500",
    "lat":53.5961162719,
    "long":9.9900078201
  },
  "53":{
    "name":"Heidberg",
    "walk_dist":"1000",
    "lat":53.6728097084,
    "long":10.0216616358
  },
  "54":{
    "name":"Heinepark",
    "walk_dist":"500",
    "lat":53.5456527519,
    "long":9.9289031081
  },
  "55":{
    "name":"Hessepark",
    "walk_dist":"500",
    "lat":53.5605650435,
    "long":9.807862454
  },
  "56":{
    "name":"Hirschpark",
    "walk_dist":"1000",
    "lat":53.5567449304,
    "long":9.8258498504
  },
  "57":{
    "name":"Hohenbuchenpark",
    "walk_dist":"1000",
    "lat":53.6664189333,
    "long":10.0936117937
  },
  "58":{
    "name":"Hohenhorst Gruenzug",
    "walk_dist":"1000",
    "lat":53.585589858,
    "long":10.1454689055
  },
  "59":{
    "name":"Horner Park",
    "walk_dist":"500",
    "lat":53.5472856361,
    "long":10.0820950857
  },
  "60":{
    "name":"Horner Rennbahn",
    "walk_dist":"500",
    "lat":53.5580422851,
    "long":10.0860609451
  },
  "61":{
    "name":"Innocentiapark",
    "walk_dist":"500",
    "lat":53.5781869251,
    "long":9.9829024298
  },
  "62":{
    "name":"Jacobipark",
    "walk_dist":"500",
    "lat":53.5666478303,
    "long":10.0538960334
  },
  "63":{
    "name":"Jenfelder Moorpark",
    "walk_dist":"1000",
    "lat":53.5764277557,
    "long":10.1219141184
  },
  "64":{
    "name":"Jenischpark",
    "walk_dist":"1000",
    "lat":53.5511328658,
    "long":9.8690225456
  },
  "65":{
    "name":"Johannes-Prassek-Park",
    "walk_dist":"500",
    "lat":53.582263805,
    "long":10.025684928
  },
  "66":{
    "name":"Jugendpark Langenhorn",
    "walk_dist":"1000",
    "lat":53.6452078541,
    "long":9.9927646105
  },
  "67":{
    "name":"Kapitaen-Schroeder-Park",
    "walk_dist":"500",
    "lat":53.5476547977,
    "long":9.9515840492
  },
  "68":{
    "name":"Kellinghusens Park",
    "walk_dist":"500",
    "lat":53.5885663862,
    "long":9.9886653351
  },
  "69":{
    "name":"Kleine Wallanlagen",
    "walk_dist":"500",
    "lat":53.557445202,
    "long":9.9810291388
  },
  "70":{
    "name":"Langenbeker Feld",
    "walk_dist":"500",
    "lat":53.4325894086,
    "long":9.9929606625
  },
  "71":{
    "name":"Liliencronpark",
    "walk_dist":"500",
    "lat":53.6001203831,
    "long":10.154520646
  },
  "72":{
    "name":"Lindenpark",
    "walk_dist":"500",
    "lat":53.5661517048,
    "long":9.9599153013
  },
  "73":{
    "name":"Lise-Meitner-Park",
    "walk_dist":"1000",
    "lat":53.5764815452,
    "long":9.8722273277
  },
  "74":{
    "name":"Lohmuehlen-Gruenzug",
    "walk_dist":"500",
    "lat":53.5573371726,
    "long":10.0187732667
  },
  "75":{
    "name":"Lutherpark",
    "walk_dist":"500",
    "lat":53.5714827282,
    "long":9.905128624
  },
  "76":{
    "name":"Luusbarg",
    "walk_dist":"500",
    "lat":53.5672663583,
    "long":9.7615469957
  },
  "77":{
    "name":"Meyers Park",
    "walk_dist":"1000",
    "lat":53.4680980841,
    "long":9.9386483647
  },
  "78":{
    "name":"Oejendorfer Park",
    "walk_dist":"1500",
    "lat":53.5569256728,
    "long":10.1435846595
  },
  "79":{
    "name":"Ohlendorffs Park",
    "walk_dist":"500",
    "lat":53.6476477481,
    "long":10.1662476505
  },
  "80":{
    "name":"Othmarschenpark",
    "walk_dist":"500",
    "lat":53.5587997693,
    "long":9.9039180375
  },
  "81":{
    "name":"Park Neulaender See",
    "walk_dist":"1000",
    "lat":53.4586671607,
    "long":10.0154129535
  },
  "82":{
    "name":"Parkanlage Grindelberg",
    "walk_dist":"500",
    "lat":53.5751577973,
    "long":9.9798341647
  },
  "83":{
    "name":"Planten un Blomen",
    "walk_dist":"1000",
    "lat":53.56205192,
    "long":9.981426708
  },
  "84":{
    "name":"Platz der Republik",
    "walk_dist":"500",
    "lat":53.5489615338,
    "long":9.9354450006
  },
  "85":{
    "name":"Polterberg",
    "walk_dist":"500",
    "lat":53.5634643966,
    "long":9.7911067347
  },
  "86":{
    "name":"Pulverhofpark",
    "walk_dist":"500",
    "lat":53.5965455062,
    "long":10.1366012587
  },
  "87":{
    "name":"Rathenaupark",
    "walk_dist":"500",
    "lat":53.5496498013,
    "long":9.9126455431
  },
  "88":{
    "name":"Reiherstiegknie",
    "walk_dist":"500",
    "lat":53.5033873153,
    "long":9.9746449371
  },
  "89":{
    "name":"Roenneburger Park",
    "walk_dist":"500",
    "lat":53.4372347385,
    "long":9.9932817478
  },
  "90":{
    "name":"Rosengarten",
    "walk_dist":"500",
    "lat":53.5451789761,
    "long":9.9181714172
  },
  "91":{
    "name":"Rueschpark",
    "walk_dist":"1000",
    "lat":53.5383851905,
    "long":9.8626821439
  },
  "92":{
    "name":"Saseler Park",
    "walk_dist":"500",
    "lat":53.6549598101,
    "long":10.1087113368
  },
  "93":{
    "name":"Schillerufer",
    "walk_dist":"500",
    "lat":53.4916313863,
    "long":10.2135926164
  },
  "94":{
    "name":"Schinckels Park",
    "walk_dist":"500",
    "lat":53.5639116528,
    "long":9.7957035966
  },
  "95":{
    "name":"Schleepark",
    "walk_dist":"500",
    "lat":53.5474566604,
    "long":9.9432477887
  },
  "96":{
    "name":"Schroeders Elbpark",
    "walk_dist":"500",
    "lat":53.5456165407,
    "long":9.8934737317
  },
  "97":{
    "name":"Schwanenwik",
    "walk_dist":"500",
    "lat":53.5643724844,
    "long":10.0160586004
  },
  "98":{
    "name":"Schwarzenberg",
    "walk_dist":"1000",
    "lat":53.4653881373,
    "long":9.970630137
  },
  "99":{
    "name":"Sola-Bona-Park",
    "walk_dist":"500",
    "lat":53.6024347803,
    "long":9.9146792227
  },
  "100":{
    "name":"Stadtpark",
    "walk_dist":"1500",
    "lat":53.5960996449,
    "long":10.0184892626
  },
  "101":{
    "name":"Sternschanzenpark",
    "walk_dist":"500",
    "lat":53.5654160036,
    "long":9.9702171384
  },
  "102":{
    "name":"Suhrwisch",
    "walk_dist":"1000",
    "lat":53.6016274552,
    "long":9.9376576886
  },
  "103":{
    "name":"Sven-Simon-Park",
    "walk_dist":"500",
    "lat":53.5673845891,
    "long":9.76475418
  },
  "104":{
    "name":"Teetzpark",
    "walk_dist":"1000",
    "lat":53.6349619223,
    "long":10.0446545353
  },
  "105":{
    "name":"Thoerls Park",
    "walk_dist":"500",
    "lat":53.5561211016,
    "long":10.0473913704
  },
  "106":{
    "name":"Trauns Park",
    "walk_dist":"500",
    "lat":53.5307008985,
    "long":10.0451219538
  },
  "107":{
    "name":"Unnapark",
    "walk_dist":"500",
    "lat":53.5755394325,
    "long":9.9498312046
  },
  "108":{
    "name":"Von-Eicken-Park",
    "walk_dist":"500",
    "lat":53.6031224115,
    "long":9.956588695
  },
  "109":{
    "name":"Vossberg",
    "walk_dist":"500",
    "lat":53.5838911703,
    "long":10.1064948416
  },
  "110":{
    "name":"Wacholder Park",
    "walk_dist":"500",
    "lat":53.6315904266,
    "long":10.0246924309
  },
  "111":{
    "name":"Waldpark Falkenstein",
    "walk_dist":"1000",
    "lat":53.5647583253,
    "long":9.774660607
  },
  "112":{
    "name":"Waldpark Marienhoehe",
    "walk_dist":"1500",
    "lat":53.5761750175,
    "long":9.7850267417
  },
  "113":{
    "name":"Walter-Moeller-Park",
    "walk_dist":"500",
    "lat":53.5525505777,
    "long":9.9524910774
  },
  "114":{
    "name":"Wandsbeker Gehoelz",
    "walk_dist":"1000",
    "lat":53.5677325557,
    "long":10.090185465
  },
  "115":{
    "name":"Wandsbeker Muehlenteichpark",
    "walk_dist":"500",
    "lat":53.5750705472,
    "long":10.0605865272
  },
  "116":{
    "name":"Wasserpark Dove-Elbe",
    "walk_dist":"1000",
    "lat":53.484953912,
    "long":10.1068275577
  },
  "117":{
    "name":"Wehbers Park",
    "walk_dist":"500",
    "lat":53.5717075101,
    "long":9.9551649118
  },
  "118":{
    "name":"Wesselhoeftpark",
    "walk_dist":"500",
    "lat":53.5507662279,
    "long":9.8588584543
  },
  "119":{
    "name":"Westerpark",
    "walk_dist":"1000",
    "lat":53.5544063458,
    "long":9.8598396243
  },
  "120":{
    "name":"Wilhelmsburger Inselpark",
    "walk_dist":"1000",
    "lat":53.4927786751,
    "long":9.9985881806
  },
  "121":{
    "name":"Wohlers Park",
    "walk_dist":"500",
    "lat":53.5582210727,
    "long":9.9530390378
  },
  "122":{
    "name":"oejendorfer Park",
    "walk_dist":"500",
    "lat":53.5575668257,
    "long":10.1431438338
  }
}